{
"type": "FeatureCollection",
"crs": { "type": "name", "properties": { "name": "urn:ogc:def:crs:EPSG::4269" } },
"features": [
{ "type": "Feature", "properties": { "GEO_ID": "0500000US72013", "STATE": "72", "COUNTY": "013", "NAME": "Arecibo", "LSAD": "Muno", "CENSUSAREA": 125.947 }, "geometry": { "type": "Point", "coordinates": [ -66.675163063048743, 18.406415084835679 ] } },
{ "type": "Feature", "properties": { "GEO_ID": "0500000US72023", "STATE": "72", "COUNTY": "023", "NAME": "Cabo Rojo", "LSAD": "Muno", "CENSUSAREA": 70.374 }, "geometry": { "type": "Point", "coordinates": [ -67.154599511632654, 18.039869192403202 ] } },
{ "type": "Feature", "properties": { "GEO_ID": "0500000US72033", "STATE": "72", "COUNTY": "033", "NAME": "Catao", "LSAD": "Muno", "CENSUSAREA": 4.845 }, "geometry": { "type": "Point", "coordinates": [ -66.140107221346199, 18.439069237521142 ] } },
{ "type": "Feature", "properties": { "GEO_ID": "0500000US72037", "STATE": "72", "COUNTY": "037", "NAME": "Ceiba", "LSAD": "Muno", "CENSUSAREA": 29.035 }, "geometry": { "type": "Point", "coordinates": [ -65.665316410324024, 18.251915464006192 ] } },
{ "type": "Feature", "properties": { "GEO_ID": "0500000US72049", "STATE": "72", "COUNTY": "049", "NAME": "Culebra", "LSAD": "Muno", "CENSUSAREA": 11.624 }, "geometry": { "type": "Point", "coordinates": [ -65.286941767764773, 18.315319439842519 ] } },
{ "type": "Feature", "properties": { "GEO_ID": "0500000US72053", "STATE": "72", "COUNTY": "053", "NAME": "Fajardo", "LSAD": "Muno", "CENSUSAREA": 29.864 }, "geometry": { "type": "Point", "coordinates": [ -65.667918694556121, 18.318412715480996 ] } },
{ "type": "Feature", "properties": { "GEO_ID": "0500000US72054", "STATE": "72", "COUNTY": "054", "NAME": "Florida", "LSAD": "Muno", "CENSUSAREA": 15.209 }, "geometry": { "type": "Point", "coordinates": [ -66.560251141081963, 18.373433787111612 ] } },
{ "type": "Feature", "properties": { "GEO_ID": "0500000US72067", "STATE": "72", "COUNTY": "067", "NAME": "Hormigueros", "LSAD": "Muno", "CENSUSAREA": 11.344 }, "geometry": { "type": "Point", "coordinates": [ -67.113996563680089, 18.134126956004 ] } },
{ "type": "Feature", "properties": { "GEO_ID": "0500000US72095", "STATE": "72", "COUNTY": "095", "NAME": "Maunabo", "LSAD": "Muno", "CENSUSAREA": 21.066 }, "geometry": { "type": "Point", "coordinates": [ -65.922642817904787, 18.018153963356536 ] } },
{ "type": "Feature", "properties": { "GEO_ID": "0500000US72097", "STATE": "72", "COUNTY": "097", "NAME": "Mayagez", "LSAD": "Muno", "CENSUSAREA": 77.645 }, "geometry": { "type": "Point", "coordinates": [ -67.331856003338842, 18.175681189938945 ] } },
{ "type": "Feature", "properties": { "GEO_ID": "0500000US72113", "STATE": "72", "COUNTY": "113", "NAME": "Ponce", "LSAD": "Muno", "CENSUSAREA": 114.762 }, "geometry": { "type": "Point", "coordinates": [ -66.614246466256432, 18.05989336561753 ] } },
{ "type": "Feature", "properties": { "GEO_ID": "0500000US72127", "STATE": "72", "COUNTY": "127", "NAME": "San Juan", "LSAD": "Muno", "CENSUSAREA": 47.847 }, "geometry": { "type": "Point", "coordinates": [ -66.062916376277755, 18.390153853869531 ] } },
{ "type": "Feature", "properties": { "GEO_ID": "0500000US72135", "STATE": "72", "COUNTY": "135", "NAME": "Toa Alta", "LSAD": "Muno", "CENSUSAREA": 27.016 }, "geometry": { "type": "Point", "coordinates": [ -66.246429846673905, 18.362557853683306 ] } },
{ "type": "Feature", "properties": { "GEO_ID": "0500000US72141", "STATE": "72", "COUNTY": "141", "NAME": "Utuado", "LSAD": "Muno", "CENSUSAREA": 113.529 }, "geometry": { "type": "Point", "coordinates": [ -66.702449402382271, 18.270993028239314 ] } },
{ "type": "Feature", "properties": { "GEO_ID": "0500000US72041", "STATE": "72", "COUNTY": "041", "NAME": "Cidra", "LSAD": "Muno", "CENSUSAREA": 36.021 }, "geometry": { "type": "Point", "coordinates": [ -66.160941973892264, 18.173714730565564 ] } },
{ "type": "Feature", "properties": { "GEO_ID": "0500000US72043", "STATE": "72", "COUNTY": "043", "NAME": "Coamo", "LSAD": "Muno", "CENSUSAREA": 78.012 }, "geometry": { "type": "Point", "coordinates": [ -66.360195653589543, 18.097305814798869 ] } },
{ "type": "Feature", "properties": { "GEO_ID": "0500000US72045", "STATE": "72", "COUNTY": "045", "NAME": "Comero", "LSAD": "Muno", "CENSUSAREA": 28.401 }, "geometry": { "type": "Point", "coordinates": [ -66.221826860621803, 18.224742636477337 ] } },
{ "type": "Feature", "properties": { "GEO_ID": "0500000US72047", "STATE": "72", "COUNTY": "047", "NAME": "Corozal", "LSAD": "Muno", "CENSUSAREA": 42.573 }, "geometry": { "type": "Point", "coordinates": [ -66.327909805547307, 18.304324257489149 ] } },
{ "type": "Feature", "properties": { "GEO_ID": "0500000US72051", "STATE": "72", "COUNTY": "051", "NAME": "Dorado", "LSAD": "Muno", "CENSUSAREA": 23.089 }, "geometry": { "type": "Point", "coordinates": [ -66.27833394413814, 18.436283789703591 ] } },
{ "type": "Feature", "properties": { "GEO_ID": "0500000US72055", "STATE": "72", "COUNTY": "055", "NAME": "Gunica", "LSAD": "Muno", "CENSUSAREA": 37.05 }, "geometry": { "type": "Point", "coordinates": [ -66.920168170423523, 17.983257880505953 ] } },
{ "type": "Feature", "properties": { "GEO_ID": "0500000US72003", "STATE": "72", "COUNTY": "003", "NAME": "Aguada", "LSAD": "Muno", "CENSUSAREA": 30.851 }, "geometry": { "type": "Point", "coordinates": [ -67.174717036910138, 18.360286281571195 ] } },
{ "type": "Feature", "properties": { "GEO_ID": "0500000US72005", "STATE": "72", "COUNTY": "005", "NAME": "Aguadilla", "LSAD": "Muno", "CENSUSAREA": 36.529 }, "geometry": { "type": "Point", "coordinates": [ -67.120764964208007, 18.460004606615794 ] } },
{ "type": "Feature", "properties": { "GEO_ID": "0500000US72007", "STATE": "72", "COUNTY": "007", "NAME": "Aguas Buenas", "LSAD": "Muno", "CENSUSAREA": 30.085 }, "geometry": { "type": "Point", "coordinates": [ -66.127370148904959, 18.251067525122096 ] } },
{ "type": "Feature", "properties": { "GEO_ID": "0500000US72009", "STATE": "72", "COUNTY": "009", "NAME": "Aibonito", "LSAD": "Muno", "CENSUSAREA": 31.311 }, "geometry": { "type": "Point", "coordinates": [ -66.264392139218884, 18.13113233098051 ] } },
{ "type": "Feature", "properties": { "GEO_ID": "0500000US72011", "STATE": "72", "COUNTY": "011", "NAME": "Aasco", "LSAD": "Muno", "CENSUSAREA": 39.285 }, "geometry": { "type": "Point", "coordinates": [ -67.120589198385289, 18.288086823948447 ] } },
{ "type": "Feature", "properties": { "GEO_ID": "0500000US72015", "STATE": "72", "COUNTY": "015", "NAME": "Arroyo", "LSAD": "Muno", "CENSUSAREA": 15.008 }, "geometry": { "type": "Point", "coordinates": [ -66.056380439751322, 17.998472284984238 ] } },
{ "type": "Feature", "properties": { "GEO_ID": "0500000US72017", "STATE": "72", "COUNTY": "017", "NAME": "Barceloneta", "LSAD": "Muno", "CENSUSAREA": 18.693 }, "geometry": { "type": "Point", "coordinates": [ -66.560432920604327, 18.445381541166672 ] } },
{ "type": "Feature", "properties": { "GEO_ID": "0500000US72019", "STATE": "72", "COUNTY": "019", "NAME": "Barranquitas", "LSAD": "Muno", "CENSUSAREA": 34.253 }, "geometry": { "type": "Point", "coordinates": [ -66.309875783957736, 18.201753247206252 ] } },
{ "type": "Feature", "properties": { "GEO_ID": "0500000US72021", "STATE": "72", "COUNTY": "021", "NAME": "Bayamn", "LSAD": "Muno", "CENSUSAREA": 44.324 }, "geometry": { "type": "Point", "coordinates": [ -66.168325150131494, 18.349632797767857 ] } },
{ "type": "Feature", "properties": { "GEO_ID": "0500000US72025", "STATE": "72", "COUNTY": "025", "NAME": "Caguas", "LSAD": "Muno", "CENSUSAREA": 58.597 }, "geometry": { "type": "Point", "coordinates": [ -66.05077888155185, 18.211893730152191 ] } },
{ "type": "Feature", "properties": { "GEO_ID": "0500000US72027", "STATE": "72", "COUNTY": "027", "NAME": "Camuy", "LSAD": "Muno", "CENSUSAREA": 46.355 }, "geometry": { "type": "Point", "coordinates": [ -66.860319117480628, 18.418890378079951 ] } },
{ "type": "Feature", "properties": { "GEO_ID": "0500000US72029", "STATE": "72", "COUNTY": "029", "NAME": "Canvanas", "LSAD": "Muno", "CENSUSAREA": 32.865 }, "geometry": { "type": "Point", "coordinates": [ -65.887860826682981, 18.328990069066528 ] } },
{ "type": "Feature", "properties": { "GEO_ID": "0500000US72031", "STATE": "72", "COUNTY": "031", "NAME": "Carolina", "LSAD": "Muno", "CENSUSAREA": 45.321 }, "geometry": { "type": "Point", "coordinates": [ -65.956926530703257, 18.37509195038929 ] } },
{ "type": "Feature", "properties": { "GEO_ID": "0500000US72035", "STATE": "72", "COUNTY": "035", "NAME": "Cayey", "LSAD": "Muno", "CENSUSAREA": 51.934 }, "geometry": { "type": "Point", "coordinates": [ -66.149489662611529, 18.102918766672367 ] } },
{ "type": "Feature", "properties": { "GEO_ID": "0500000US72039", "STATE": "72", "COUNTY": "039", "NAME": "Ciales", "LSAD": "Muno", "CENSUSAREA": 66.529 }, "geometry": { "type": "Point", "coordinates": [ -66.516446735323882, 18.289028319236376 ] } },
{ "type": "Feature", "properties": { "GEO_ID": "0500000US72089", "STATE": "72", "COUNTY": "089", "NAME": "Luquillo", "LSAD": "Muno", "CENSUSAREA": 25.811 }, "geometry": { "type": "Point", "coordinates": [ -65.725251387623118, 18.342514559063286 ] } },
{ "type": "Feature", "properties": { "GEO_ID": "0500000US72091", "STATE": "72", "COUNTY": "091", "NAME": "Manat", "LSAD": "Muno", "CENSUSAREA": 45.128 }, "geometry": { "type": "Point", "coordinates": [ -66.490109696967281, 18.41998315016161 ] } },
{ "type": "Feature", "properties": { "GEO_ID": "0500000US72093", "STATE": "72", "COUNTY": "093", "NAME": "Maricao", "LSAD": "Muno", "CENSUSAREA": 36.623 }, "geometry": { "type": "Point", "coordinates": [ -66.94230021794219, 18.172084876606963 ] } },
{ "type": "Feature", "properties": { "GEO_ID": "0500000US72099", "STATE": "72", "COUNTY": "099", "NAME": "Moca", "LSAD": "Muno", "CENSUSAREA": 50.344 }, "geometry": { "type": "Point", "coordinates": [ -67.080769763737038, 18.377962570328116 ] } },
{ "type": "Feature", "properties": { "GEO_ID": "0500000US72101", "STATE": "72", "COUNTY": "101", "NAME": "Morovis", "LSAD": "Muno", "CENSUSAREA": 38.871 }, "geometry": { "type": "Point", "coordinates": [ -66.420306274355099, 18.317075044374892 ] } },
{ "type": "Feature", "properties": { "GEO_ID": "0500000US72103", "STATE": "72", "COUNTY": "103", "NAME": "Naguabo", "LSAD": "Muno", "CENSUSAREA": 51.661 }, "geometry": { "type": "Point", "coordinates": [ -65.754324290229377, 18.230669644410558 ] } },
{ "type": "Feature", "properties": { "GEO_ID": "0500000US72057", "STATE": "72", "COUNTY": "057", "NAME": "Guayama", "LSAD": "Muno", "CENSUSAREA": 64.992 }, "geometry": { "type": "Point", "coordinates": [ -66.133740912323361, 18.007404284381476 ] } },
{ "type": "Feature", "properties": { "GEO_ID": "0500000US72059", "STATE": "72", "COUNTY": "059", "NAME": "Guayanilla", "LSAD": "Muno", "CENSUSAREA": 42.27 }, "geometry": { "type": "Point", "coordinates": [ -66.791632525940315, 18.041189593932422 ] } },
{ "type": "Feature", "properties": { "GEO_ID": "0500000US72061", "STATE": "72", "COUNTY": "061", "NAME": "Guaynabo", "LSAD": "Muno", "CENSUSAREA": 27.579 }, "geometry": { "type": "Point", "coordinates": [ -66.114045490568628, 18.343825314900503 ] } },
{ "type": "Feature", "properties": { "GEO_ID": "0500000US72063", "STATE": "72", "COUNTY": "063", "NAME": "Gurabo", "LSAD": "Muno", "CENSUSAREA": 27.887 }, "geometry": { "type": "Point", "coordinates": [ -65.979294883022675, 18.266395553143216 ] } },
{ "type": "Feature", "properties": { "GEO_ID": "0500000US72065", "STATE": "72", "COUNTY": "065", "NAME": "Hatillo", "LSAD": "Muno", "CENSUSAREA": 41.781 }, "geometry": { "type": "Point", "coordinates": [ -66.796453009815622, 18.410592529102463 ] } },
{ "type": "Feature", "properties": { "GEO_ID": "0500000US72069", "STATE": "72", "COUNTY": "069", "NAME": "Humacao", "LSAD": "Muno", "CENSUSAREA": 44.755 }, "geometry": { "type": "Point", "coordinates": [ -65.81081347915557, 18.145443303849849 ] } },
{ "type": "Feature", "properties": { "GEO_ID": "0500000US72071", "STATE": "72", "COUNTY": "071", "NAME": "Isabela", "LSAD": "Muno", "CENSUSAREA": 55.304 }, "geometry": { "type": "Point", "coordinates": [ -67.004863066199704, 18.449702517509394 ] } },
{ "type": "Feature", "properties": { "GEO_ID": "0500000US72073", "STATE": "72", "COUNTY": "073", "NAME": "Jayuya", "LSAD": "Muno", "CENSUSAREA": 44.533 }, "geometry": { "type": "Point", "coordinates": [ -66.588431271333079, 18.210680478665971 ] } },
{ "type": "Feature", "properties": { "GEO_ID": "0500000US72075", "STATE": "72", "COUNTY": "075", "NAME": "Juana Daz", "LSAD": "Muno", "CENSUSAREA": 60.277 }, "geometry": { "type": "Point", "coordinates": [ -66.495185740929116, 18.051307202551065 ] } },
{ "type": "Feature", "properties": { "GEO_ID": "0500000US72077", "STATE": "72", "COUNTY": "077", "NAME": "Juncos", "LSAD": "Muno", "CENSUSAREA": 26.489 }, "geometry": { "type": "Point", "coordinates": [ -65.908921043190446, 18.223541288068727 ] } },
{ "type": "Feature", "properties": { "GEO_ID": "0500000US72079", "STATE": "72", "COUNTY": "079", "NAME": "Lajas", "LSAD": "Muno", "CENSUSAREA": 59.953 }, "geometry": { "type": "Point", "coordinates": [ -67.040920742661172, 18.012208612203533 ] } },
{ "type": "Feature", "properties": { "GEO_ID": "0500000US72081", "STATE": "72", "COUNTY": "081", "NAME": "Lares", "LSAD": "Muno", "CENSUSAREA": 61.45 }, "geometry": { "type": "Point", "coordinates": [ -66.866782493338789, 18.268679577575913 ] } },
{ "type": "Feature", "properties": { "GEO_ID": "0500000US72083", "STATE": "72", "COUNTY": "083", "NAME": "Las Maras", "LSAD": "Muno", "CENSUSAREA": 46.36 }, "geometry": { "type": "Point", "coordinates": [ -66.983421579971505, 18.23711582145835 ] } },
{ "type": "Feature", "properties": { "GEO_ID": "0500000US72085", "STATE": "72", "COUNTY": "085", "NAME": "Las Piedras", "LSAD": "Muno", "CENSUSAREA": 33.88 }, "geometry": { "type": "Point", "coordinates": [ -65.869275227122216, 18.187582218690022 ] } },
{ "type": "Feature", "properties": { "GEO_ID": "0500000US72087", "STATE": "72", "COUNTY": "087", "NAME": "Loza", "LSAD": "Muno", "CENSUSAREA": 19.366 }, "geometry": { "type": "Point", "coordinates": [ -65.898742124708747, 18.425380628866705 ] } },
{ "type": "Feature", "properties": { "GEO_ID": "0500000US72143", "STATE": "72", "COUNTY": "143", "NAME": "Vega Alta", "LSAD": "Muno", "CENSUSAREA": 27.728 }, "geometry": { "type": "Point", "coordinates": [ -66.337267479159706, 18.409810491018384 ] } },
{ "type": "Feature", "properties": { "GEO_ID": "0500000US72145", "STATE": "72", "COUNTY": "145", "NAME": "Vega Baja", "LSAD": "Muno", "CENSUSAREA": 45.856 }, "geometry": { "type": "Point", "coordinates": [ -66.397765373493726, 18.428689182203861 ] } },
{ "type": "Feature", "properties": { "GEO_ID": "0500000US72147", "STATE": "72", "COUNTY": "147", "NAME": "Vieques", "LSAD": "Muno", "CENSUSAREA": 50.768 }, "geometry": { "type": "Point", "coordinates": [ -65.438343578773953, 18.12242148657398 ] } },
{ "type": "Feature", "properties": { "GEO_ID": "0500000US72149", "STATE": "72", "COUNTY": "149", "NAME": "Villalba", "LSAD": "Muno", "CENSUSAREA": 35.637 }, "geometry": { "type": "Point", "coordinates": [ -66.472802952592687, 18.128189331567715 ] } },
{ "type": "Feature", "properties": { "GEO_ID": "0500000US72151", "STATE": "72", "COUNTY": "151", "NAME": "Yabucoa", "LSAD": "Muno", "CENSUSAREA": 55.215 }, "geometry": { "type": "Point", "coordinates": [ -65.896553599894574, 18.070608300920647 ] } },
{ "type": "Feature", "properties": { "GEO_ID": "0500000US72105", "STATE": "72", "COUNTY": "105", "NAME": "Naranjito", "LSAD": "Muno", "CENSUSAREA": 27.401 }, "geometry": { "type": "Point", "coordinates": [ -66.252526162354769, 18.288466457455613 ] } },
{ "type": "Feature", "properties": { "GEO_ID": "0500000US72107", "STATE": "72", "COUNTY": "107", "NAME": "Orocovis", "LSAD": "Muno", "CENSUSAREA": 63.62 }, "geometry": { "type": "Point", "coordinates": [ -66.434033253217535, 18.214909605121974 ] } },
{ "type": "Feature", "properties": { "GEO_ID": "0500000US72109", "STATE": "72", "COUNTY": "109", "NAME": "Patillas", "LSAD": "Muno", "CENSUSAREA": 46.699 }, "geometry": { "type": "Point", "coordinates": [ -66.012380437074825, 18.031692718706061 ] } },
{ "type": "Feature", "properties": { "GEO_ID": "0500000US72111", "STATE": "72", "COUNTY": "111", "NAME": "Peuelas", "LSAD": "Muno", "CENSUSAREA": 44.617 }, "geometry": { "type": "Point", "coordinates": [ -66.721699951280073, 18.059990012936975 ] } },
{ "type": "Feature", "properties": { "GEO_ID": "0500000US72115", "STATE": "72", "COUNTY": "115", "NAME": "Quebradillas", "LSAD": "Muno", "CENSUSAREA": 22.683 }, "geometry": { "type": "Point", "coordinates": [ -66.926000275221668, 18.439791481821292 ] } },
{ "type": "Feature", "properties": { "GEO_ID": "0500000US72117", "STATE": "72", "COUNTY": "117", "NAME": "Rincn", "LSAD": "Muno", "CENSUSAREA": 14.288 }, "geometry": { "type": "Point", "coordinates": [ -67.231888915812434, 18.335408592120732 ] } },
{ "type": "Feature", "properties": { "GEO_ID": "0500000US72119", "STATE": "72", "COUNTY": "119", "NAME": "Ro Grande", "LSAD": "Muno", "CENSUSAREA": 60.623 }, "geometry": { "type": "Point", "coordinates": [ -65.813507803158544, 18.346681637915022 ] } },
{ "type": "Feature", "properties": { "GEO_ID": "0500000US72121", "STATE": "72", "COUNTY": "121", "NAME": "Sabana Grande", "LSAD": "Muno", "CENSUSAREA": 35.833 }, "geometry": { "type": "Point", "coordinates": [ -66.943580325053787, 18.082867157568273 ] } },
{ "type": "Feature", "properties": { "GEO_ID": "0500000US72123", "STATE": "72", "COUNTY": "123", "NAME": "Salinas", "LSAD": "Muno", "CENSUSAREA": 69.365 }, "geometry": { "type": "Point", "coordinates": [ -66.25630268135717, 18.011460835599809 ] } },
{ "type": "Feature", "properties": { "GEO_ID": "0500000US72125", "STATE": "72", "COUNTY": "125", "NAME": "San Germn", "LSAD": "Muno", "CENSUSAREA": 54.498 }, "geometry": { "type": "Point", "coordinates": [ -67.03842256352155, 18.111123094408086 ] } },
{ "type": "Feature", "properties": { "GEO_ID": "0500000US72129", "STATE": "72", "COUNTY": "129", "NAME": "San Lorenzo", "LSAD": "Muno", "CENSUSAREA": 53.108 }, "geometry": { "type": "Point", "coordinates": [ -65.976436282418135, 18.147991546884779 ] } },
{ "type": "Feature", "properties": { "GEO_ID": "0500000US72131", "STATE": "72", "COUNTY": "131", "NAME": "San Sebastin", "LSAD": "Muno", "CENSUSAREA": 70.423 }, "geometry": { "type": "Point", "coordinates": [ -66.971240244309797, 18.32873802069534 ] } },
{ "type": "Feature", "properties": { "GEO_ID": "0500000US72133", "STATE": "72", "COUNTY": "133", "NAME": "Santa Isabel", "LSAD": "Muno", "CENSUSAREA": 34.023 }, "geometry": { "type": "Point", "coordinates": [ -66.388418752487723, 17.995920990779258 ] } },
{ "type": "Feature", "properties": { "GEO_ID": "0500000US72137", "STATE": "72", "COUNTY": "137", "NAME": "Toa Baja", "LSAD": "Muno", "CENSUSAREA": 23.241 }, "geometry": { "type": "Point", "coordinates": [ -66.215117110691196, 18.430567122788482 ] } },
{ "type": "Feature", "properties": { "GEO_ID": "0500000US72139", "STATE": "72", "COUNTY": "139", "NAME": "Trujillo Alto", "LSAD": "Muno", "CENSUSAREA": 20.764 }, "geometry": { "type": "Point", "coordinates": [ -65.999161227074921, 18.336300557011278 ] } },
{ "type": "Feature", "properties": { "GEO_ID": "0500000US72153", "STATE": "72", "COUNTY": "153", "NAME": "Yauco", "LSAD": "Muno", "CENSUSAREA": 68.192 }, "geometry": { "type": "Point", "coordinates": [ -66.858727167438914, 18.080136362200374 ] } },
{ "type": "Feature", "properties": { "GEO_ID": "0500000US72001", "STATE": "72", "COUNTY": "001", "NAME": "Adjuntas", "LSAD": "Muno", "CENSUSAREA": 66.69 }, "geometry": { "type": "Point", "coordinates": [ -66.753953289052532, 18.179715559800499 ] } }
]
}
